,City,Country,Latitude,Longitude,Max Temperature (F),Humidity,Cloudiness,Windspeed (mph),Date
0,Saint-Augustin,CA,51.226,-58.6502,51.64,83,77,24.14,1667865398
1,Aksu,CN,41.1231,80.2644,42.4,42,26,1.83,1667865399
2,Lebu,CL,-37.6167,-73.65,54.81,81,54,9.93,1667865399
3,Mahébourg,MU,-20.4081,57.7,71.89,83,20,3.44,1667865399
4,Balkanabat,TM,39.5108,54.3671,42.24,56,0,4.18,1667865400
5,Mataura,NZ,-46.1927,168.8643,65.48,41,70,4.5,1667865290
6,Rikitea,PF,-23.1203,-134.9692,73.56,92,100,21.43,1667865289
7,Souillac,MU,-20.5167,57.5167,71.98,83,20,3.44,1667865036
8,Yangi Marg`ilon,UZ,40.4272,71.7189,48.92,81,75,4.61,1667865400
9,Valparaíso,CL,-33.0393,-71.6273,61.03,82,100,5.75,1667865401
10,Punta Arenas,CL,-53.15,-70.9167,59.11,63,75,20.71,1667865293
11,College,US,64.8569,-147.8028,20.8,68,100,3.0,1667865401
12,Jamestown,US,42.097,-79.2353,48.02,59,0,5.75,1667865242
13,Butaritari,KI,3.0707,172.7902,80.26,75,61,6.29,1667865371
14,Broken Hill,AU,-31.95,141.4333,74.44,39,37,7.29,1667865367
15,Gaza,PS,31.5,34.4667,67.87,63,3,12.3,1667865278
16,Dikson,RU,73.5069,80.5464,5.25,94,100,9.42,1667865373
17,Klaksvík,FO,62.2266,-6.589,49.12,91,98,33.4,1667865106
18,Shingū,JP,33.7333,135.9833,63.37,59,0,4.09,1667865402
19,Puerto Ayora,EC,-0.7393,-90.3518,67.55,84,83,5.01,1667865403
20,Beaumont,US,30.0861,-94.1019,78.78,70,0,3.44,1667865186
21,Makakilo City,US,21.3469,-158.0858,82.44,68,68,19.15,1667865403
22,Saldanha,ZA,-33.0117,17.9442,60.3,86,48,6.42,1667865403
23,Batesville,US,35.7698,-91.641,61.95,62,100,6.91,1667865106
24,Santa Isabel Rio Negro,BR,-0.4139,-65.0192,73.98,97,100,0.74,1667865404
25,Cabo San Lucas,MX,22.8909,-109.9124,81.18,65,7,7.0,1667865007
26,Kouroussa,GN,10.65,-9.8833,80.89,52,100,1.7,1667865405
27,Haines Junction,CA,60.7522,-137.5108,-0.45,71,21,1.14,1667865405
28,Barrow,US,71.2906,-156.7887,24.3,88,100,15.17,1667865405
29,Ushuaia,AR,-54.8,-68.3,60.46,51,75,18.41,1667865405
30,Rocha,UY,-34.4833,-54.3333,53.67,94,0,6.58,1667865406
31,Puerto Escondido,MX,15.85,-97.0667,81.55,81,72,4.21,1667865227
32,Awjilah,LY,29.1081,21.2869,63.28,75,40,9.51,1667865337
33,Avarua,CK,-21.2078,-159.775,75.25,73,75,8.05,1667865291
34,Tuktoyaktuk,CA,69.4541,-133.0374,1.4,78,40,9.22,1667865407
35,Nikolskoye,RU,59.7035,30.7861,39.09,94,100,8.08,1667865372
36,Clyde River,CA,70.4692,-68.5914,10.63,72,75,0.0,1667865407
37,Bathsheba,BB,13.2167,-59.5167,83.01,78,40,17.27,1667865408
38,Kapaa,US,22.0752,-159.319,82.11,72,60,8.01,1667865408
39,Khatanga,RU,71.9667,102.5,5.95,96,100,5.41,1667865409
40,Tanete,ID,-3.9443,119.7848,77.94,87,100,5.64,1667865409
41,Carnarvon,AU,-24.8667,113.6333,68.47,58,34,14.16,1667865409
42,Torbay,CA,47.6666,-52.7314,61.57,95,100,25.32,1667865410
43,George Town,MY,5.4112,100.3354,81.23,89,20,0.0,1667865342
44,Suntar,RU,62.1444,117.6319,15.19,96,100,3.58,1667865368
45,Beitbridge,ZW,-22.2167,30.0,76.26,62,100,11.16,1667865410
46,Busselton,AU,-33.65,115.3333,60.51,71,25,11.54,1667865289
47,Salekhard,RU,66.53,66.6019,21.34,95,100,4.29,1667865411
48,Haysville,US,37.5645,-97.3523,60.3,52,100,10.36,1667865411
49,Camargo,MX,27.6667,-105.1667,76.28,22,29,12.44,1667865411
50,Hermanus,ZA,-34.4187,19.2345,52.81,86,27,7.47,1667865412
51,Bluff,NZ,-46.6,168.3333,65.8,67,63,6.17,1667865412
52,Bethel,US,41.3712,-73.414,69.67,40,5,9.57,1667865211
53,Ubari,LY,26.5921,12.7805,58.06,43,0,5.32,1667865413
54,Hong Kong,HK,22.2855,114.1577,72.25,90,98,13.0,1667865107
55,New Norfolk,AU,-42.7826,147.0587,72.72,31,79,2.55,1667865365
56,Umm Kaddadah,SD,13.6017,26.6876,75.47,21,26,15.64,1667865413
57,Te Anau,NZ,-45.4167,167.7167,64.74,48,55,3.85,1667865413
58,Tocopilla,CL,-22.092,-70.1979,64.24,68,11,3.56,1667865414
59,Tuatapere,NZ,-46.1333,167.6833,64.6,50,98,4.79,1667865414
60,Katherine,AU,-14.4667,132.2667,88.12,51,41,10.36,1667865385
61,Saint-Philippe,RE,-21.3585,55.7679,71.19,78,59,7.99,1667865415
62,Turukhansk,RU,65.8167,87.9833,17.35,95,100,11.99,1667865415
63,Tumut,AU,-35.3,148.2167,68.61,64,18,5.91,1667865415
64,Dingle,PH,10.9995,122.6711,81.32,85,88,6.85,1667865262
65,Skorodnoye,RU,51.071,37.2276,36.43,75,100,6.78,1667865416
66,Port Elizabeth,ZA,-33.918,25.5701,63.32,87,100,4.0,1667865416
67,Chui,UY,-33.6971,-53.4616,58.66,84,10,9.48,1667865416
68,Kemijärvi,FI,66.7131,27.4306,23.0,98,40,1.86,1667865417
69,Lorengau,PG,-2.0226,147.2712,86.38,66,85,5.01,1667865417
70,Tawao,MY,4.2498,117.8871,77.13,94,100,3.2,1667865418
71,Hilo,US,19.7297,-155.09,81.1,82,100,4.0,1667865418
72,Poum,NC,-20.2333,164.0167,78.17,80,100,13.09,1667865418
73,Tena,EC,-0.9833,-77.8167,74.43,82,80,3.38,1667865419
74,Husavik,IS,66.0449,-17.3389,39.61,93,100,12.24,1667865419
75,Qaanaaq,GL,77.484,-69.3632,-1.07,98,100,6.13,1667865419
76,Pemba,MZ,-12.974,40.5178,76.78,86,76,9.98,1667865420
77,Saint-Pierre,RE,-21.3393,55.4781,71.28,68,0,4.61,1667865417
78,Saint Paul Harbor,US,57.79,-152.4072,36.52,97,100,18.63,1667865420
79,Aklavik,CA,68.2191,-135.0107,-0.4,85,40,4.61,1667865420
80,Hambantota,LK,6.1241,81.1185,77.27,84,99,3.74,1667865421
81,Hobart,AU,-42.8794,147.3294,73.06,54,0,8.05,1667865288
82,Chokurdakh,RU,70.6333,147.9167,-11.4,95,83,12.01,1667865421
83,Kutum,SD,14.2,24.6667,67.26,27,8,7.29,1667865124
84,Albany,US,42.6001,-73.9662,53.64,42,5,1.99,1667865199
85,Monrovia,LR,6.3005,-10.7969,77.61,85,95,3.83,1667865384
86,Aktash,RU,50.3,87.7333,22.33,83,100,4.41,1667865422
87,Christchurch,NZ,-43.5333,172.6333,63.41,63,40,8.05,1667865341
88,Nizhniy Chir,RU,48.3597,43.0865,36.01,77,99,8.86,1667865422
89,Iralaya,HN,15.0,-83.2333,78.51,79,10,10.56,1667865423
90,Laguna,US,38.421,-121.4238,60.06,55,100,12.66,1667865423
91,Birin,NP,26.8865,88.0718,51.85,84,15,4.16,1667865423
92,Mehamn,NO,71.0357,27.8492,33.71,93,75,8.05,1667865424
93,Manavālakurichi,IN,8.1333,77.3,76.87,80,34,2.82,1667865424
94,Port Alfred,ZA,-33.5906,26.891,64.18,90,100,3.0,1667865425
95,Upernavik,GL,72.7868,-56.1549,9.7,84,94,4.9,1667865370
96,Yulara,AU,-25.2406,130.9889,84.06,33,93,12.06,1667865393
97,Caucayá,CO,-0.1934,-74.7819,79.63,69,98,1.07,1667865426
98,Nemuro,JP,43.3236,145.575,46.35,63,98,4.18,1667865427
99,Dongsheng,CN,39.8161,109.9776,35.42,45,51,7.52,1667865427
100,Kumul,CN,42.8,93.45,42.58,34,100,0.29,1667865427
101,Gimli,CA,50.6336,-96.9907,28.42,80,97,8.05,1667865428
102,Atuona,PF,-9.8,-139.0333,76.82,70,80,13.53,1667865037
103,Kalabo,ZM,-14.97,22.6814,68.47,79,100,4.36,1667865428
104,Berdigestyakh,RU,62.0989,126.6992,-27.62,100,50,2.15,1667865429
105,Codrington,AU,-38.2667,141.9667,72.14,68,3,9.91,1667865429
106,Saskylakh,RU,71.9167,114.0833,-23.64,99,26,5.5,1667865429
107,Mocuba,MZ,-16.8392,36.9856,72.43,90,7,3.0,1667865430
108,Bonavista,CA,48.6499,-53.1147,52.45,94,100,20.15,1667865430
109,Augusto Corrêa,BR,-1.0217,-46.635,74.77,95,99,2.59,1667865430
110,Terney,RU,45.0503,136.6092,41.05,67,6,6.44,1667865431
111,Azanka,RU,58.0401,64.7893,28.87,95,99,6.76,1667865431
112,Mussomeli,IT,37.5778,13.7513,52.86,79,6,3.58,1667865431
113,Salalah,OM,17.0151,54.0924,74.84,72,0,2.64,1667865100
114,Tasiilaq,GL,65.6145,-37.6368,29.82,97,100,6.82,1667865372
115,Banjarmasin,ID,-3.3244,114.591,78.12,85,90,2.35,1667865432
116,Cadillac,US,44.2519,-85.4012,37.31,70,40,5.75,1667865432
117,Kashgar,CN,39.4547,75.9797,43.81,65,20,4.47,1667865433
118,Borzya,RU,50.3833,116.5167,24.91,77,33,3.58,1667865433
119,Ostrovnoy,RU,68.0531,39.5131,30.42,94,96,4.36,1667865433
120,Ponta do Sol,PT,32.6667,-17.1,68.72,87,76,4.16,1667865367
121,Lensk,RU,60.7253,114.9278,21.85,90,100,11.16,1667865434
122,Kurri Kurri,AU,-32.8167,151.4833,72.18,65,17,6.31,1667865434
123,Hithadhoo,MV,-0.6,73.0833,81.55,77,60,18.21,1667865435
124,Tiksi,RU,71.6872,128.8694,0.84,91,100,18.52,1667865372
125,Sosnovo,RU,60.5514,30.2144,38.48,90,100,9.89,1667865435
126,Yellowknife,CA,62.456,-114.3525,7.32,78,75,4.61,1667865291
127,Saint-François,FR,46.4154,3.9054,42.24,93,0,2.3,1667865436
128,Nome,US,64.5011,-165.4064,32.07,93,100,32.21,1667865181
129,Japura,ID,-0.3167,102.35,73.78,96,100,0.85,1667865437
130,Coahuayana Viejo,MX,18.7333,-103.6833,78.69,84,9,4.0,1667865437
131,Pevek,RU,69.7008,170.3133,1.54,95,12,1.25,1667865012
132,Faanui,PF,-16.4833,-151.75,78.75,74,17,6.67,1667865292
133,Mar del Plata,AR,-38.0023,-57.5575,64.09,88,0,16.11,1667865159
134,Abhā,SA,18.2164,42.5053,57.02,94,25,5.75,1667865438
135,Ilulissat,GL,69.2167,-51.1,-7.35,88,23,6.51,1667865021
136,Northam,GB,51.0333,-4.2167,53.38,94,100,19.95,1667865438
137,Severo-Kuril'sk,RU,50.6789,156.125,37.85,85,90,12.44,1667865366
138,São Raimundo Nonato,BR,-9.0153,-42.6994,80.37,58,99,1.41,1667865439
139,Valday,RU,57.9747,33.2525,38.1,97,100,7.96,1667865439
140,Provideniya,RU,64.3833,-173.3,32.11,74,100,17.9,1667865292
141,Zhigansk,RU,66.7697,123.3711,-8.73,94,100,6.15,1667865440
142,Rūdbār,AF,30.15,62.6,66.76,30,43,5.91,1667865440
143,Port Hardy,CA,50.6996,-127.4199,37.58,48,20,19.57,1667865334
144,Port Keats,AU,-14.25,129.55,90.39,51,14,8.21,1667865441
145,Myanaung,MM,18.2833,95.3167,68.14,85,14,5.99,1667865441
146,Yinchuan,CN,38.4681,106.2731,44.91,43,91,5.35,1667865441
147,Ariogala,LT,55.2667,23.4667,43.81,86,91,8.79,1667865442
148,Khovd,MN,48.0056,91.6419,34.61,44,99,9.95,1667865187
149,Vaini,TO,-21.2,-175.2,80.76,69,20,10.36,1667865299
150,Kresttsy,RU,58.2452,32.5165,40.06,93,100,8.41,1667865442
151,Bredasdorp,ZA,-34.5322,20.0403,57.15,91,25,5.7,1667865443
152,Kieta,PG,-6.2167,155.6333,85.28,70,23,7.14,1667865443
153,Codó,BR,-4.4553,-43.8856,76.93,88,100,1.59,1667865443
154,Umm Bāb,QA,25.2142,50.8072,79.02,56,0,4.9,1667865444
155,Arlit,NE,18.7369,7.3853,71.96,20,12,8.5,1667865444
156,Touros,BR,-5.1989,-35.4608,78.3,75,96,11.36,1667865444
157,Cape Town,ZA,-33.9258,18.4232,61.12,85,16,1.01,1667865253
158,Liepāja,LV,56.5419,21.0367,51.78,93,75,21.85,1667865445
159,Waitati,NZ,-45.75,170.5667,62.29,58,45,5.68,1667865445
160,Port Lincoln,AU,-34.7333,135.8667,77.94,42,99,16.78,1667865446
161,Heiligenhafen,DE,54.3667,10.9833,55.06,91,100,18.86,1667865446
162,Airai,TL,-8.9266,125.4092,69.98,67,97,0.72,1667865446
163,Lamas,PE,-6.4167,-76.5333,81.07,67,47,2.62,1667865153
164,Narsaq,GL,60.9167,-46.05,18.41,79,99,7.14,1667865447
165,Aksarka,RU,66.5606,67.7975,20.37,96,100,4.18,1667865447
166,Nhulunbuy,AU,-12.2333,136.7667,88.41,66,75,5.75,1667865447
167,Camacha,PT,33.0833,-16.3333,63.82,94,20,2.3,1667865448
168,Arraial do Cabo,BR,-22.9661,-42.0278,69.76,78,75,2.3,1667865448
169,Toora-Khem,RU,52.4675,96.11,24.13,98,100,1.34,1667865449
170,Thompson,CA,55.7435,-97.8558,-2.04,84,20,4.61,1667865297
171,Port Blair,IN,11.6667,92.75,77.04,88,40,2.3,1667865449
172,Ribeira Grande,PT,38.5167,-28.7,63.77,69,100,7.0,1667865449
173,Eyrarbakki,IS,63.863,-21.1481,44.2,74,99,22.17,1667865450
174,Labuhan,ID,-6.8844,112.2051,79.43,80,100,5.3,1667865450
175,Tual,ID,-5.6667,132.75,83.82,72,100,9.8,1667865450
176,Mathbaria,BD,22.2876,89.9593,66.67,88,2,2.35,1667865451
177,Ancud,CL,-41.8697,-73.8203,53.78,96,85,4.54,1667865371
178,Hermosillo,MX,29.0667,-110.9667,81.28,25,95,1.99,1667865317
179,Linxia Chengguanzhen,CN,35.6003,103.2064,41.77,77,17,2.53,1667865451
180,Kabalo,CD,-6.05,26.9167,69.58,86,84,1.28,1667865452
181,Bay-Khaak,RU,51.1667,94.5,22.93,88,97,2.89,1667865452
182,Bengkulu,ID,-3.8004,102.2655,74.35,91,100,2.71,1667865452
183,Presidencia Roque Sáenz Peña,AR,-26.7852,-60.4388,78.1,30,82,9.78,1667865453
184,Kayunga,UG,0.7025,32.8886,63.91,98,100,0.85,1667865453
185,Gamba,GA,-2.65,10.0,76.84,90,100,6.87,1667865453
186,Malanje,AO,-9.5402,16.341,63.41,93,96,4.54,1667865454
187,Chissamba,AO,-12.1667,17.3333,64.17,89,100,2.84,1667865454
188,Tandil,AR,-37.3217,-59.1332,64.69,46,0,16.42,1667865323
189,Antofagasta,CL,-23.65,-70.4,60.08,81,39,5.08,1667865454
190,Hualmay,PE,-11.0964,-77.6139,63.93,82,12,7.16,1667865455
191,Macia,MZ,-25.0269,33.0989,70.47,94,29,5.03,1667865455
192,Wajima,JP,37.4,136.9,54.28,100,20,4.61,1667865455
193,São Filipe,CV,14.8961,-24.4956,78.06,67,69,4.0,1667865456
194,Castro,BR,-24.7911,-50.0119,51.8,91,8,6.04,1667865456
195,Ust'-Kulom,RU,61.6864,53.6902,26.71,95,96,6.13,1667865456
196,Ibrā’,OM,22.6906,58.5334,70.74,71,46,3.76,1667865457
197,Lompoc,US,34.6391,-120.4579,60.85,90,75,8.05,1667865457
198,Kurchum,KZ,48.5722,83.6542,43.95,59,100,2.48,1667865458
199,Mirante do Paranapanema,BR,-22.2919,-51.9064,66.0,48,31,5.32,1667865458
200,Bagotville,AU,-28.9833,153.4167,63.86,99,30,7.47,1667865458
201,Demba,CD,-5.51,22.2667,65.86,95,98,1.48,1667865459
202,Erenhot,CN,43.6475,111.9767,34.05,32,6,9.62,1667865295
203,Panguipulli,CL,-39.6333,-72.3333,55.92,68,8,1.01,1667865459
204,East London,ZA,-33.0153,27.9116,67.93,86,100,13.82,1667865459
205,Flinders,AU,-34.5833,150.8552,74.17,62,45,5.01,1667865460
206,Verkhnyaya Inta,RU,65.9811,60.3094,25.72,91,100,12.5,1667865460
207,Jinchang,CN,38.4953,102.1739,38.75,40,96,5.23,1667865461
208,Barranco,PA,9.5167,-82.7,73.9,93,100,2.68,1667865461
209,Pontes e Lacerda,BR,-15.2261,-59.3353,75.43,40,0,5.3,1667865461
210,Paamiut,GL,61.994,-49.6678,17.69,59,99,6.6,1667865462
211,Pinkafeld,AT,47.3667,16.1167,43.75,85,80,3.58,1667865462
212,Kenora,CA,49.8167,-94.4337,29.37,80,100,3.44,1667865462
213,Arrondissement de Bourges,FR,47.25,2.4167,47.79,78,100,8.03,1667865463
214,Shenjiamen,CN,29.9576,122.298,65.34,64,0,6.29,1667865463
215,Bako,ET,5.7833,36.5667,64.81,69,99,3.83,1667865463
216,Vagay,RU,57.9375,69.0217,25.93,89,47,5.23,1667865464
217,Mayor Pablo Lagerenza,PY,-19.9309,-60.7718,78.39,30,1,3.56,1667865464
218,Kavaratti,IN,10.5669,72.642,81.39,74,32,6.89,1667865464
219,Fortuna,US,40.5982,-124.1573,49.08,91,100,5.01,1667865465
220,Honiara,SB,-9.4333,159.95,85.77,71,40,6.13,1667865465
221,Lagoa,PT,39.05,-27.9833,62.96,68,100,19.39,1667865466
222,Kemin,KG,42.7846,75.6892,39.92,94,100,1.61,1667865466
223,Vila Franca do Campo,PT,37.7167,-25.4333,61.21,85,100,6.44,1667865466
224,Koyelga,RU,54.6522,60.9049,22.71,93,84,4.94,1667865467
225,Khiri Mat,TH,16.8333,99.8,68.04,92,1,3.98,1667865467
226,Los Llanos de Aridane,ES,28.6585,-17.9182,65.95,53,0,8.05,1667865191
227,Iqaluit,CA,63.7506,-68.5145,19.13,62,75,15.01,1667865467
228,Balkhash,KZ,46.844,74.9804,42.55,87,100,16.37,1667865468
229,Dhubri,IN,26.0333,89.9667,67.41,90,0,6.38,1667865468
230,Jasper,US,37.2001,-94.3502,63.23,52,95,1.01,1667865468
231,Barra de Tecoanapa,MX,16.5167,-98.75,81.66,81,84,7.16,1667865469
232,Vypolzovo,RU,57.8767,33.6986,37.98,97,100,7.9,1667865469
233,Skovorodino,RU,53.9833,123.9167,12.4,93,52,0.72,1667865469
234,Waddān,LY,29.1614,16.139,60.08,69,0,5.5,1667865470
235,Esim,GH,4.8699,-2.2405,78.28,86,100,5.03,1667865470
236,Cocobeach,GA,1.0002,9.5823,79.45,84,100,6.87,1667865470
237,Olafsvik,IS,64.8945,-23.7142,42.4,74,89,14.2,1667865471
238,Noumea,NC,-22.2763,166.4572,78.01,99,95,17.09,1667865402
239,Ust-Nera,RU,64.5667,143.2,-23.33,99,77,3.71,1667865471
240,Marawi,PH,7.9986,124.2928,75.52,81,49,0.6,1667865472
241,Evanston,US,42.0411,-87.6901,48.58,59,37,4.0,1667865156
242,Cairns,AU,-16.9167,145.7667,86.11,65,100,11.5,1667865324
243,Damietta,EG,31.4165,31.8133,66.09,72,4,14.14,1667865472
244,Kavieng,PG,-2.5744,150.7967,84.18,70,90,5.44,1667865472
245,Yunyang,CN,33.4474,112.7142,54.82,59,56,5.77,1667865473
246,Vardø,NO,70.3705,31.1107,33.78,86,100,6.91,1667865474
247,Hamilton,US,39.1834,-84.5333,59.74,33,49,3.0,1667865474
248,Kuybyshevo,RU,47.8123,38.9073,34.36,84,41,7.83,1667865474
249,Mount Isa,AU,-20.7333,139.5,89.37,33,0,8.05,1667865223
250,Shahrud,IR,36.4182,54.9763,38.37,74,43,5.91,1667865475
251,Naze,JP,28.3667,129.4833,67.12,60,11,10.07,1667865475
252,Okhotsk,RU,59.3833,143.3,7.48,69,31,18.9,1667865475
253,Rawson,AR,-43.3002,-65.1023,63.88,58,82,16.4,1667865358
254,Hervey Bay,AU,-25.2986,152.8535,72.61,55,31,14.07,1667865476
255,Bartlesville,US,36.7473,-95.9808,67.1,63,100,10.29,1667865476
256,Esik,KZ,43.3552,77.4525,38.62,89,100,1.43,1667865477
257,Akdepe,TM,42.0551,59.3788,39.29,77,86,13.49,1667865477
258,Kayerkan,RU,69.3497,87.7602,-4.49,83,99,2.98,1667865477
259,Omboué,GA,-1.5746,9.2618,76.33,91,100,5.17,1667865478
260,Gao,ML,16.6362,1.637,73.38,15,95,12.01,1667865478
261,São João da Barra,BR,-21.6403,-41.0511,71.69,73,51,5.77,1667865191
262,Longyearbyen,SJ,78.2186,15.6401,24.64,80,75,13.8,1667865479
263,Kaitangata,NZ,-46.2817,169.8464,58.91,65,62,4.65,1667865479
264,Bonfim,BR,3.0833,-59.95,78.01,85,100,3.38,1667865479
265,Keti Bandar,PK,24.1447,67.4497,76.62,71,1,4.65,1667865480
266,Coquimbo,CL,-29.9533,-71.3436,58.73,82,100,8.05,1667865189
267,Sur,OM,22.5667,59.5289,81.1,63,88,9.35,1667865480
268,Rio Grande,BR,-32.035,-52.0986,62.71,75,24,14.99,1667865203
269,Viedma,AR,-40.8135,-62.9967,68.79,46,17,15.52,1667865481
270,Gonbad-e Kāvūs,IR,37.25,55.1672,50.07,59,90,2.86,1667865482
271,Dakar,SN,14.6937,-17.4441,78.93,83,0,4.61,1667865392
272,San Patricio,US,28.017,-97.5169,80.17,77,4,11.05,1667865482
273,Berestechko,UA,50.3605,25.1107,46.99,93,77,6.17,1667865483
274,Karema,TZ,-6.8205,30.4389,71.62,83,65,4.59,1667865483
275,Dunedin,NZ,-45.8742,170.5036,58.59,70,48,9.33,1667865483
276,Paralímni,CY,35.0375,33.9833,59.88,75,84,12.3,1667865484
277,Mandan,US,46.8267,-100.8896,28.36,83,100,21.85,1667865484
278,Altay,CN,47.8667,88.1167,38.03,48,63,6.42,1667865485
279,Nizhneangarsk,RU,55.7833,109.55,22.24,68,92,11.03,1667865485
280,Umeå,SE,63.8284,20.2597,33.91,100,100,10.36,1667865485
281,São Luiz Gonzaga,BR,-28.4083,-54.9608,61.88,65,2,13.04,1667865486
282,Havre-St-Pierre,CA,50.2334,-63.5986,43.16,87,0,23.02,1667865220
283,Chicama,PE,-7.8447,-79.1469,61.34,77,19,6.6,1667865486
284,Leningradskiy,RU,69.3833,178.4167,14.7,88,100,6.55,1667865487
285,Ventspils,LV,57.3894,21.5606,51.73,100,100,16.11,1667865411
286,Nicoya,CR,10.1483,-85.452,74.14,94,99,2.68,1667865488
287,Chaykovskiy,RU,56.7686,54.1148,29.17,97,100,5.99,1667865488
288,Bay Roberts,CA,47.5999,-53.2648,62.33,95,99,15.01,1667865488
289,Oranjemund,NA,-28.55,16.4333,59.79,91,33,6.8,1667865489
290,Pangnirtung,CA,66.1451,-65.7125,14.0,48,0,3.44,1667865489
291,Kruisfontein,ZA,-34.0033,24.7314,57.38,83,100,5.26,1667865489
292,Bemidji,US,47.4736,-94.8803,32.05,83,0,0.0,1667865490
293,Meulaboh,ID,4.1363,96.1285,76.35,87,94,2.01,1667865490
294,Saint George,US,37.1041,-113.5841,70.39,33,0,24.16,1667865318
295,Killybegs,IE,54.6333,-8.45,49.51,84,98,18.84,1667865491
296,Cidreira,BR,-30.1811,-50.2056,62.15,82,33,13.09,1667865491
297,Tura,IN,25.5198,90.2201,63.41,83,1,3.67,1667865491
298,Debre Tabor,ET,11.85,38.0167,50.07,66,16,3.15,1667865492
299,Isangel,VU,-19.55,169.2667,75.31,88,100,9.22,1667865492
300,Mongu,ZM,-15.2484,23.1274,68.59,84,90,4.52,1667865493
301,San Juan,AR,-31.5375,-68.5364,82.72,22,77,16.71,1667865442
302,Port Macquarie,AU,-31.4333,152.9167,69.89,73,66,5.95,1667865493
303,Gomel,BY,52.4345,30.9754,42.82,86,75,11.18,1667865494
304,May Pen,JM,17.9645,-77.2451,79.81,86,54,1.45,1667865494
305,Solec Kujawski,PL,53.0837,18.2257,49.87,94,0,9.22,1667865495
306,Tsurugi-asahimachi,JP,36.45,136.6333,61.86,63,40,5.82,1667865495
307,Esperance,AU,-33.8667,121.9,58.84,76,99,15.48,1667865495
308,Galle,LK,6.0367,80.217,76.62,86,100,3.83,1667865260
309,Nouadhibou,MR,20.931,-17.0347,69.78,78,6,10.36,1667865496
310,Xichang,CN,27.8964,102.2634,50.34,88,2,0.72,1667865496
311,Moranbah,AU,-22.0016,148.0466,79.21,42,0,13.65,1667865497
312,Sabang,ID,5.8933,95.3214,81.32,75,100,13.09,1667865497
313,Pemberton,CA,50.3164,-122.8027,28.09,75,98,7.36,1667865497
314,Laramie,US,41.3114,-105.5911,41.95,47,81,13.58,1667865327
315,Pahrump,US,36.2083,-115.9839,64.26,46,99,18.99,1667865378
316,Egvekinot,RU,66.3167,-179.1667,19.33,86,100,15.64,1667865499
317,Scranton,US,41.409,-75.6624,54.88,37,0,9.55,1667865500
318,Søndersø,DK,55.4853,10.2554,55.02,93,99,14.97,1667865500
319,Barbacena,BR,-21.2258,-43.7736,56.71,100,100,5.75,1667865500
320,Bubaque,GW,11.2833,-15.8333,83.75,65,89,13.6,1667865501
321,Guwahati,IN,26.1862,91.751,67.91,100,40,0.0,1667865433
322,Skjervøy,NO,70.0311,20.9714,41.0,71,45,9.48,1667865502
323,Honmachi,JP,32.5,130.6,57.6,55,0,6.4,1667865502
324,Hasaki,JP,35.7333,140.8333,57.6,65,38,15.03,1667865502
325,Moba,CN,33.2288,105.0179,44.46,88,79,4.25,1667865503
326,Road Town,VG,18.4167,-64.6167,82.44,89,20,11.5,1667865503
327,Sibolga,ID,1.7427,98.7792,76.26,82,100,2.8,1667865504
328,Mavrovi Anovi,MK,41.7025,20.7564,43.18,81,27,2.57,1667865504
329,Bulgan,MN,48.8125,103.5347,31.57,51,23,5.68,1667865238
330,Hvolsvollur,IS,63.7533,-20.2243,39.04,83,100,15.08,1667865505
331,Deputatsky,RU,69.3,139.9,-6.05,94,100,5.79,1667865505
332,Manga,BF,11.6636,-1.0731,75.18,16,18,7.14,1667865506
333,Shellbrook,CA,53.2168,-106.4011,9.63,91,100,15.05,1667865506
334,Butembo,CD,0.15,29.2833,57.52,96,99,2.01,1667865506
335,Mumbwa,ZM,-14.9783,27.0619,65.48,89,96,2.37,1667865507
336,Bowling Green,US,36.9903,-86.4436,69.55,54,7,9.17,1667865330
337,Arinos,BR,-15.9169,-46.1056,72.86,68,88,1.72,1667865507
338,Bosobolo,CD,4.1833,19.9,69.17,97,99,2.06,1667865507
339,Neuquén,AR,-38.9516,-68.0591,85.89,28,40,9.22,1667865508
340,Cockburn Town,TC,21.4612,-71.1419,80.38,73,76,8.52,1667865508
341,Oussouye,SN,12.485,-16.5469,78.89,65,100,6.44,1667865509
342,Tikrit,IQ,34.6071,43.6782,64.62,28,41,5.61,1667865509
343,Elliot Lake,CA,46.3834,-82.6331,36.45,72,52,8.41,1667865431
344,Uvalde,US,29.3669,-99.767,83.12,64,0,10.36,1667865510
345,The Valley,AI,18.217,-63.0578,80.46,94,20,5.75,1667865486
346,Tigil',RU,57.8,158.6667,20.55,94,100,5.3,1667865510
347,Grand Gaube,MU,-20.0064,57.6608,72.0,77,3,1.99,1667865511
348,Weyburn,CA,49.6668,-103.8511,21.42,86,100,33.38,1667865511
349,Homer,US,59.6425,-151.5483,39.09,78,100,14.97,1667865512
350,Syracuse,IT,37.0881,15.2792,54.77,71,1,4.34,1667865512
351,Westport,US,41.1415,-73.3579,69.78,31,3,11.18,1667865513
352,Tovste,UA,48.8466,25.7262,49.96,86,100,4.52,1667865513
353,Hofn,IS,64.2539,-15.2082,43.11,92,100,24.9,1667865514
354,Dublin,US,37.7021,-121.9358,57.83,64,31,1.99,1667865422
355,Gizo Government Station,SB,-8.103,156.8419,83.61,73,90,8.57,1667865514
356,Mangan,IN,27.5167,88.5333,59.88,55,8,5.59,1667865514
357,Shimoda,JP,34.6667,138.95,63.1,63,0,4.79,1667865515
358,Duartina,BR,-22.4144,-49.4039,72.75,51,1,7.96,1667865515
359,Namatanai,PG,-3.6667,152.4333,84.38,69,86,5.82,1667865265
360,Portland,US,45.5234,-122.6762,43.84,91,100,10.0,1667865512
361,Phan Thiet,VN,10.9333,108.1,76.91,84,100,2.33,1667865516
362,Phalodi,IN,27.1333,72.3667,71.62,37,8,7.65,1667865516
363,Talnakh,RU,69.4865,88.3972,-3.8,100,94,6.49,1667865288
364,Tautira,PF,-17.7333,-149.15,76.35,84,10,12.77,1667865517
365,Walvis Bay,NA,-22.9575,14.5053,60.1,94,45,9.22,1667865284
366,Tshikapa,CD,-6.4167,20.8,69.49,96,99,1.19,1667865517
367,Saint-Ambroise,CA,48.5501,-71.3324,43.11,70,88,19.57,1667865518
368,Hobyo,SO,5.3505,48.5268,79.95,73,15,6.67,1667865518
369,Bundibugyo,UG,0.7414,30.0417,67.62,84,99,3.18,1667865518
370,Sept-Îles,CA,50.2001,-66.3821,44.6,76,100,17.27,1667865519
371,Adrar,MR,20.5022,-10.0711,76.1,16,0,8.28,1667865519
372,Cherskiy,RU,68.75,161.3,-6.34,98,13,3.42,1667865047
373,Araguaína,BR,-7.1911,-48.2072,78.69,71,100,1.41,1667865469
374,Russell,US,32.3502,-85.1999,75.0,65,29,4.34,1667865520
375,Aswān,EG,24.0934,32.907,65.5,34,0,0.0,1667865439
376,Katsuura,JP,35.1333,140.3,61.3,80,14,11.5,1667865520
377,Kuala Terengganu,MY,5.3302,103.1408,75.15,100,20,2.3,1667865521
378,Sfântu Gheorghe,RO,45.8667,25.7833,49.93,84,99,1.7,1667865521
379,Salta,AR,-24.7859,-65.4117,79.39,24,100,6.91,1667865481
380,Bikaner,IN,28.0167,73.3,71.46,38,31,7.9,1667865431
381,Kahului,US,20.8947,-156.47,85.96,72,97,10.0,1667865522
382,Saint Anthony,US,45.0205,-93.218,35.82,66,100,4.61,1667865522
383,Yasnyy,RU,51.0333,59.8742,23.02,97,61,7.78,1667865522
384,Española,US,35.9911,-106.0806,62.24,31,65,6.91,1667865523
385,Lüderitz,NA,-26.6481,15.1594,61.34,88,41,9.42,1667865523
386,Nikolayevka,RU,53.1257,47.2041,30.54,92,92,7.02,1667865524
387,Cayenne,GF,4.9333,-52.3333,77.04,94,0,0.0,1667865524
388,Ellisras,ZA,-23.6649,27.7443,68.72,86,100,13.27,1667865525
389,Bhabhua,IN,25.05,83.6167,64.27,64,46,2.66,1667865525
390,Prince Rupert,CA,54.3161,-130.3201,30.29,33,0,18.41,1667865525
391,Nabire,ID,-3.3667,135.4833,85.1,67,79,1.28,1667865308
392,Launceston,AU,-41.45,147.1667,74.61,47,22,8.05,1667865526
393,Culebra,PR,18.303,-65.301,75.99,83,100,5.01,1667865526
394,Djebeniana,TN,35.035,10.9081,57.0,33,0,8.39,1667865527
395,Pisco,PE,-13.7,-76.2167,64.45,77,0,12.66,1667865306
396,Taltal,CL,-25.4,-70.4833,60.87,79,30,4.65,1667865527
397,Pandan,PH,14.0453,124.1694,82.78,83,100,7.05,1667865527
398,Sovetskiy,RU,61.3614,63.5842,23.14,96,100,4.47,1667865528
399,Raisen,IN,23.3333,77.8,65.61,59,69,4.36,1667865528
400,Chifeng,CN,42.2683,118.9636,35.47,36,36,5.03,1667865528
401,Moyale,KE,3.5167,39.0584,69.39,68,99,6.49,1667865529
402,Dzoraghbyur,AM,40.2041,44.6415,34.7,61,100,3.11,1667865529
403,Martapura,ID,-3.4167,114.85,77.45,86,88,1.9,1667865529
404,Lubyany,RU,56.0378,51.4,29.1,97,98,7.45,1667865530
405,Conceição do Araguaia,BR,-8.2578,-49.2647,74.5,91,100,2.8,1667865530
406,Marsh Harbour,BS,26.5412,-77.0636,79.36,70,3,29.37,1667865530
407,Praia da Vitória,PT,38.7333,-27.0667,61.75,88,75,12.86,1667865338
408,Medicine Hat,CA,50.0501,-110.6683,16.23,87,100,6.91,1667865531
409,Sola,VU,-13.8833,167.55,79.47,94,100,0.0,1667865531
410,Svecha,RU,58.2785,47.5164,31.42,95,99,7.78,1667865532
411,Lavrentiya,RU,65.5833,-171.0,28.74,97,100,22.62,1667865294
412,Östersund,SE,63.1792,14.6357,31.6,100,100,5.01,1667865532
413,Giruá,BR,-28.0283,-54.3497,61.27,65,2,13.58,1667865533
414,Vredendal,ZA,-31.6683,18.5012,56.79,88,1,4.23,1667865533
415,Sonoma,US,38.55,-122.9011,52.84,86,100,5.08,1667865319
416,Havelock,US,34.8791,-76.9013,71.96,84,16,5.44,1667865533
417,Savannah Bight,HN,16.45,-85.85,82.18,72,14,12.91,1667865534
418,La Sarre,CA,48.8002,-79.1996,31.37,74,86,13.85,1667865534
419,Tommot,RU,58.9564,126.2925,4.62,97,96,1.86,1667865534
420,Maniitsoq,GL,65.4167,-52.9,17.01,55,0,6.82,1667865535
421,Kiryat Gat,IL,31.61,34.7642,67.41,10,3,5.86,1667865535
422,Maceió,BR,-9.6658,-35.7353,74.64,94,40,5.75,1667865474
423,Willowmore,ZA,-33.2926,23.4895,60.53,79,71,3.56,1667865536
424,Youhao,CN,47.8667,128.8333,29.55,66,91,3.71,1667865536
425,Wewak,PG,-3.5534,143.6268,76.41,87,100,8.68,1667865536
426,Atasū,KZ,48.6814,71.6433,27.52,67,100,4.54,1667865537
427,Bossangoa,CF,6.4926,17.4552,72.36,62,85,2.68,1667865537
428,Alofi,NU,-19.0595,-169.9187,80.49,61,40,12.66,1667865537
429,Ahipara,NZ,-35.1667,173.1667,60.94,89,88,13.13,1667865538
430,Putina,PE,-15.4667,-69.4333,45.66,65,6,10.54,1667865538
431,Artyom,AZ,40.4723,50.333,51.94,63,87,15.32,1667865538
432,Kharan,PK,28.5833,65.4167,65.3,51,17,2.95,1667865539
433,San Cristobal,VE,7.7669,-72.225,73.58,97,95,2.53,1667865262
434,Kerema,PG,-7.9631,145.7785,84.09,68,100,4.25,1667865539
435,Rizal,PH,15.7118,121.1061,78.49,85,93,5.01,1667865539
436,Togur,RU,58.3631,82.8265,21.04,98,100,2.51,1667865540
437,Gouré,NE,13.9835,10.2704,74.01,17,3,8.01,1667865540
438,Greytown,ZA,-29.0642,30.5928,62.65,91,98,1.68,1667865540
439,Kīhei,US,20.785,-156.4656,85.96,79,94,1.92,1667865541
440,Ko Samui,TH,9.5357,99.9357,76.91,94,40,5.75,1667865311
441,Iquique,CL,-20.2208,-70.1431,62.64,70,13,0.78,1667865541
442,Korla,CN,41.7597,86.1469,45.36,41,93,2.89,1667865542
443,Kysyl-Syr,RU,63.8986,122.7617,-24.02,100,27,3.42,1667865542
444,Ndélé,CF,8.4109,20.6473,72.88,75,99,3.62,1667865542
445,Kovdor,RU,67.5662,30.4758,22.96,96,60,1.14,1667865543
446,Sangar,RU,63.9242,127.4739,-11.07,95,100,3.4,1667865543
447,Palmer,US,42.1584,-72.3287,59.65,38,2,12.1,1667865393
448,Tungor,RU,53.3808,142.9564,24.4,59,65,15.5,1667865544
449,Daru,PG,-9.0763,143.2092,81.48,82,100,5.66,1667865544
450,Galesong,ID,-5.3166,119.3661,77.02,77,96,7.58,1667865343
451,Agulu,NG,6.11,7.0724,74.89,69,75,1.12,1667865544
452,Mahajanga,MG,-15.7167,46.3167,77.02,88,40,3.44,1667865545
453,Vanderhoof,CA,54.0166,-124.0198,6.48,70,100,12.01,1667865545
454,Verāval,IN,20.9,70.3667,75.99,61,18,10.47,1667865545
455,Assiut,EG,27.181,31.1837,60.98,50,87,6.17,1667865546
456,Vila Velha,BR,-20.3297,-40.2925,75.15,78,75,4.61,1667865546
457,El Alto,PE,-4.2714,-81.2147,64.06,87,21,14.47,1667865547
458,Iquitos,PE,-3.7481,-73.2472,86.04,62,0,2.3,1667865547
459,Ust'-Kut,RU,56.7938,105.7672,21.54,88,96,10.49,1667865547
460,Aquitania,CO,5.5197,-72.8875,48.74,96,96,2.08,1667865548
461,Hwange,ZW,-18.3693,26.5019,72.63,71,97,1.23,1667865548
462,Dārāb,IR,28.7519,54.5444,61.12,60,93,0.74,1667865548
463,Qandala,SO,11.472,49.8728,79.14,75,1,4.36,1667865549
464,Dogondoutchi,NE,13.6393,4.0287,77.7,17,19,7.99,1667865549
465,Caraballeda,VE,10.6112,-66.8522,80.28,86,87,4.25,1667865549
466,Nanortalik,GL,60.1432,-45.2371,28.08,88,100,2.68,1667865290
467,Hatillo,PR,18.4863,-66.8254,81.1,89,40,3.0,1667865550
468,Mugur-Aksy,RU,50.35,90.5,19.96,85,66,5.95,1667865550
469,Örnsköldsvik,SE,63.2909,18.7153,31.15,100,100,5.75,1667865551
470,Kotel,BG,42.8833,26.45,38.75,84,50,2.3,1667865551
471,Estelle,US,29.8458,-90.1067,80.01,78,14,7.43,1667865551
472,Goderich,CA,43.7501,-81.7165,47.91,53,6,13.8,1667865295
473,Zenzeli,RU,45.9241,47.0474,37.96,72,39,8.59,1667865552
474,Fairbanks,US,64.8378,-147.7164,20.82,74,100,2.64,1667865302
475,Chul'man,RU,56.8479,124.9104,1.78,98,99,2.93,1667865552
476,Ust'ye,RU,59.6304,39.736,34.36,93,100,8.48,1667865553
477,Erkner,DE,52.4167,13.75,54.07,83,0,11.5,1667865553
478,Mirzāpur,IN,25.15,82.5833,65.93,64,38,4.0,1667865554
479,Geraldton,AU,-28.7667,114.6,66.61,77,75,14.97,1667865554
480,Hope,US,33.6671,-93.5916,69.08,95,83,8.12,1667865554
481,Cabras,IT,39.93,8.5314,58.8,85,17,6.24,1667865555
482,Yining,CN,29.0361,114.5636,60.64,67,2,0.69,1667865555
483,Waipawa,NZ,-41.4122,175.5153,61.39,60,4,6.71,1667865555
484,Helena,US,46.5927,-112.0361,14.32,77,100,4.0,1667865485
485,Novorzhev,RU,57.0294,29.3338,44.19,89,100,8.63,1667865556
486,Buraidah,SA,26.326,43.975,66.65,55,0,6.46,1667865556
487,Mitsamiouli,KM,-11.3847,43.2844,77.27,82,1,13.91,1667865557
488,Kindu,CD,-2.95,25.95,70.61,89,100,1.07,1667865557
489,Petropavlovsk-Kamchatskiy,RU,53.0452,158.6483,32.59,69,75,6.71,1667865557
490,Arman',RU,59.7,150.1667,19.02,89,99,19.6,1667865558
491,Norman Wells,CA,65.282,-126.8329,5.04,78,20,9.22,1667865558
492,Marsabit,KE,2.3284,37.9899,66.78,73,90,15.52,1667865558
493,Tazovsky,RU,67.4667,78.7,16.47,96,100,6.96,1667865559
494,Margate,GB,51.3813,1.3862,59.9,76,100,10.0,1667865560
495,Faya,SA,18.3851,42.4509,57.31,86,12,3.38,1667865560
496,La Ronge,CA,55.1001,-105.2842,10.65,79,75,10.36,1667865560
497,São Miguel do Araguaia,BR,-13.275,-50.1628,79.07,60,98,4.5,1667865561
498,Acajutla,SV,13.5928,-89.8275,80.19,78,35,1.12,1667865561
499,Terrace,CA,54.5163,-128.6035,21.11,32,75,13.8,1667865562
500,Victoria Point,AU,-27.5833,153.3,77.68,62,57,7.0,1667865562
501,Bambous Virieux,MU,-20.3428,57.7575,71.85,83,20,3.44,1667865361
502,Fürstenwalde,DE,52.3667,14.0667,52.92,85,91,8.21,1667865562
503,Tabuk,PH,17.4189,121.4443,76.06,89,80,0.74,1667865563
504,Mayumba,GA,-3.432,10.6554,77.07,90,67,5.99,1667865563
505,Mogadishu,SO,2.0371,45.3438,77.83,81,50,7.76,1667865564
506,Kirakira,SB,-10.4544,161.9205,84.42,75,72,8.88,1667865564
507,Ginir,ET,7.1333,40.7,55.24,83,26,4.79,1667865565
508,Oriximiná,BR,-1.7656,-55.8661,74.79,93,98,1.81,1667865565
509,San Rafael,AR,-34.6177,-68.3301,78.15,25,31,12.93,1667865565
510,Cherat Cantonement,PK,33.8233,71.8915,48.13,64,31,3.29,1667865566
511,Coffs Harbour,AU,-30.3,153.1333,69.13,77,100,5.75,1667865566
512,Nosy Varika,MG,-20.5833,48.5333,69.21,88,80,5.93,1667865566
513,Razdolinsk,RU,58.4211,94.6658,15.31,98,99,3.71,1667865567
514,Port Hedland,AU,-20.3167,118.5667,75.25,46,10,16.11,1667865567
515,Gijang,KR,35.2442,129.2139,46.13,39,0,3.31,1667865293
516,Cardston,CA,49.2,-113.3019,3.49,85,100,10.36,1667865567
517,Guisa,CU,20.255,-76.5386,70.12,93,19,2.04,1667865568
518,Alta Floresta,BR,-9.8756,-56.0861,80.01,47,50,1.19,1667865568
519,Mossamedes,AO,-15.1961,12.1522,68.27,76,2,7.31,1667865568
520,Province of Mantua,IT,45.1667,10.7833,47.44,66,13,3.0,1667865569
521,Verkhoyansk,RU,67.5447,133.385,-2.07,99,100,2.39,1667865569
522,Halachó,MX,20.4833,-90.0833,80.37,65,45,6.22,1667865570
523,Auki,SB,-8.7676,160.7034,82.17,79,79,7.05,1667865570
524,Harper,LR,4.375,-7.7169,78.71,83,94,6.62,1667865571
525,Sosnovo-Ozerskoye,RU,52.5249,111.5418,22.26,79,100,7.31,1667865571
526,Santo Tomas,PH,14.1079,121.1414,79.56,81,88,7.07,1667865571
527,Talgar,KZ,43.3027,77.2395,39.36,100,100,4.47,1667865572
528,Warrnambool,AU,-38.3833,142.4833,69.51,72,3,5.88,1667865572
529,Fertőszentmiklós,HU,47.59,16.8752,46.08,83,50,7.94,1667865572
530,Bukachacha,RU,52.9833,116.9167,18.25,93,86,2.26,1667865573
531,Yurginskoye,RU,56.8189,67.3921,25.7,94,100,5.12,1667865573
532,Niono,ML,14.2526,-5.993,78.17,18,21,9.01,1667865573
533,Kaduqli,SD,11.0167,29.7167,74.98,28,71,4.27,1667865574
534,Wasilla,US,61.5814,-149.4394,24.4,60,100,1.01,1667865574
535,Óbidos,BR,-1.9175,-55.5181,75.34,93,100,1.99,1667865297
536,Springbok,ZA,-29.6643,17.8865,59.74,59,12,0.78,1667865575
537,Asău,RO,46.4333,26.4,42.28,82,93,3.47,1667865575
538,Koungou,YT,-12.7336,45.2042,78.51,78,75,11.5,1667865575
539,Honningsvåg,NO,70.9821,25.9704,40.75,75,100,5.75,1667865576
540,Olhão,PT,37.0286,-7.8411,66.09,94,20,1.14,1667865576
541,Kroya,ID,-7.6331,109.2461,77.52,85,95,1.12,1667865576
542,Padang,ID,-0.9492,100.3543,75.25,84,100,2.62,1667865577
543,Voyvozh,RU,62.892,54.9635,26.92,97,100,8.1,1667865577
544,Acapulco de Juárez,MX,16.8634,-99.8901,80.96,86,86,6.82,1667865282
545,Gikongoro,RW,-2.464,29.5739,56.77,90,97,4.72,1667865577
546,La Roche-sur-Yon,FR,46.6667,-1.4333,52.07,93,0,9.22,1667865578
547,Leipzig,DE,51.342,12.375,52.65,85,0,10.36,1667865578
548,Rawlins,US,41.7911,-107.2387,44.76,54,0,16.24,1667865579
549,Bahía Blanca,AR,-38.7196,-62.2724,74.21,31,2,13.91,1667865481
550,Rock Sound,BS,24.9,-76.2,80.29,72,1,27.78,1667865579
551,Vestmannaeyjar,IS,63.4427,-20.2734,42.04,86,100,15.37,1667865579
552,Vao,NC,-22.6667,167.4833,74.46,85,85,17.36,1667865580
553,Verkhnevilyuysk,RU,63.4453,120.3167,-8.77,95,42,3.58,1667865580
554,Strezhevoy,RU,60.7333,77.5889,24.04,93,100,6.76,1667865580
555,Playas,EC,-2.6333,-80.3833,68.38,82,52,12.1,1667865581
556,Bairiki Village,KI,1.3292,172.9752,84.2,65,20,2.3,1667865581
557,Santiago del Estero,AR,-27.7951,-64.2615,82.92,23,99,17.78,1667865582
558,Antalaha,MG,-14.9003,50.2788,70.7,78,68,5.28,1667865582
559,Vicuña,CL,-30.0319,-70.7081,74.77,55,99,0.67,1667865582
560,Aldan,RU,58.6031,125.3894,12.6,93,100,5.3,1667865583
561,Tandahimba,TZ,-10.75,39.6333,68.9,95,75,4.07,1667865583
562,Lumphat,KH,13.4878,106.9816,71.82,92,60,3.51,1667865395
